,City,Lat,Lng,Max Temp,Humidity,Cloudiness,Wind Speed,Country,Date
0,Zyryanka,65.75,150.85,-29.97,83,100,15.08,RU,1612053823
1,Tongliao,43.6125,122.2653,1.71,92,99,7.9,CN,1612053823
2,Kasiri,8.9412,-13.1148,75.42,79,0,3.74,SL,1612053823
3,Poum,-20.2333,164.0167,80.33,67,0,11.14,NC,1612053572
4,Yellowknife,62.456,-114.3525,-13.0,77,20,4.61,CA,1612053547
5,Albany,42.6001,-73.9662,17.01,59,5,5.01,US,1612053582
6,Castro,-24.7911,-50.0119,65.57,97,100,5.08,BR,1612053823
7,Arraial do Cabo,-22.9661,-42.0278,77.0,82,0,26.98,BR,1612053561
8,Saskylakh,71.9167,114.0833,-33.81,82,100,11.7,RU,1612053824
9,Santa Rosa,14.3122,121.1114,79.0,69,40,5.75,PH,1612053824
10,Upernavik,72.7868,-56.1549,-9.45,85,77,6.51,GL,1612053583
11,Gürsu,40.2188,29.1949,41.0,93,75,2.3,TR,1612053824
12,Mataura,-46.1927,168.8643,71.98,37,96,3.56,NZ,1612053824
13,Charters Towers,-20.1,146.2667,84.36,54,100,9.73,AU,1612053824
14,Punta Arenas,-53.15,-70.9167,51.8,62,0,26.46,CL,1612053704
15,Ushuaia,-54.8,-68.3,51.8,62,20,21.85,AR,1612053687
16,Lábrea,-7.2586,-64.7981,75.24,94,100,2.75,BR,1612053825
17,Kokoda,-8.8785,147.7407,77.81,65,100,6.42,PG,1612053825
18,Mareeba,-17.0,145.4333,91.0,62,40,11.5,AU,1612053825
19,Key West,24.5557,-81.7826,70.0,64,20,13.8,US,1612053825
20,Jamestown,42.097,-79.2353,18.0,86,1,3.44,US,1612053616
21,Assiut,27.181,31.1837,45.54,57,0,0.49,EG,1612053825
22,Avarua,-21.2078,-159.775,82.4,74,75,6.91,CK,1612053825
23,Mengyin,35.7069,117.9264,41.92,62,0,3.69,CN,1612053826
24,Sørland,67.667,12.6934,30.76,90,41,6.8,NO,1612053826
25,Rikitea,-23.1203,-134.9692,79.5,70,0,11.34,PF,1612053826
26,Chui,-33.6971,-53.4616,71.51,88,100,12.12,UY,1612053826
27,Marsá Maţrūḩ,31.3525,27.2453,60.78,58,0,14.7,EG,1612053826
28,Gillette,44.2911,-105.5022,33.8,75,90,9.22,US,1612053826
29,Saint-Philippe,-21.3585,55.7679,78.8,65,0,6.91,RE,1612053586
30,Almaznyy,48.0448,40.045,33.8,100,20,13.42,RU,1612053826
31,Mocuba,-16.8392,36.9856,72.93,97,98,0.63,MZ,1612053826
32,Skjervøy,70.0311,20.9714,28.09,87,100,5.5,NO,1612053826
33,Tasiilaq,65.6145,-37.6368,21.2,30,90,16.11,GL,1612053827
34,Hilo,19.7297,-155.09,80.6,54,75,9.22,US,1612053827
35,Edd,13.9297,41.6925,70.18,83,1,0.69,ER,1612053827
36,Cape Town,-33.9258,18.4232,71.01,77,75,5.75,ZA,1612053531
37,Kahului,20.8947,-156.47,78.8,57,40,18.41,US,1612053827
38,Carnarvon,-24.8667,113.6333,84.2,79,0,5.75,AU,1612053827
39,Haljala,59.4336,26.2614,22.41,98,100,7.58,EE,1612053827
40,Winsum,53.33,6.5208,27.0,93,24,3.02,NL,1612053827
41,Butaritari,3.0707,172.7902,81.23,78,53,18.37,KI,1612053827
42,Port Hedland,-20.3167,118.5667,87.8,58,75,12.66,AU,1612053828
43,Guerrero Negro,27.9769,-114.0611,60.84,65,100,15.99,MX,1612053828
44,Santa Helena,-2.2311,-45.3,74.7,94,100,1.9,BR,1612053695
45,Varhaug,58.6147,5.6457,28.99,100,40,1.14,NO,1612053828
46,Barcelona,41.3888,2.159,55.0,50,20,10.36,ES,1612053567
47,Adolfo López Mateos,28.4667,-107.3,51.4,45,0,10.13,MX,1612053828
48,Mazamari,-11.3258,-74.5308,69.35,82,98,1.28,PE,1612053828
49,Fairbanks,64.8378,-147.7164,-2.99,77,90,1.07,US,1612053629
50,East London,-33.0153,27.9116,69.93,85,70,3.36,ZA,1612053828
51,Torbay,47.6666,-52.7314,28.99,93,90,8.05,CA,1612053828
52,Tautira,-17.7333,-149.15,87.8,58,75,9.22,PF,1612053829
53,New Norfolk,-42.7826,147.0587,73.0,28,6,1.74,AU,1612053829
54,Ponta do Sol,32.6667,-17.1,59.0,74,45,1.99,PT,1612053829
55,Atuona,-9.8,-139.0333,79.25,73,62,17.56,PF,1612053577
56,Port-Gentil,-0.7193,8.7815,76.82,81,100,8.93,GA,1612053829
57,Yur’yev-Pol’skiy,56.5,39.6833,21.79,97,100,11.48,RU,1612053829
58,Lüderitz,-26.6481,15.1594,65.39,63,0,18.03,NA,1612053829
59,Itoman,26.1247,127.6694,62.6,51,20,5.75,JP,1612053744
60,Hobart,-42.8794,147.3294,73.0,40,20,11.5,AU,1612053549
61,Bathsheba,13.2167,-59.5167,78.8,73,40,17.27,BB,1612053597
62,Thompson,55.7435,-97.8558,14.0,92,90,2.3,CA,1612053729
63,Ribeira Grande,38.5167,-28.7,63.12,91,94,21.79,PT,1612053830
64,Marawi,7.9986,124.2928,81.0,80,43,1.01,PH,1612053830
65,Faanui,-16.4833,-151.75,81.75,70,31,8.03,PF,1612053830
66,São João dos Patos,-6.495,-43.7022,70.75,89,100,2.19,BR,1612053830
67,Kālīganj,23.4095,89.1402,48.36,52,0,5.39,BD,1612053830
68,Mount Isa,-20.7333,139.5,95.0,28,79,5.75,AU,1612053788
69,George Town,5.4112,100.3354,77.0,83,20,6.46,MY,1612053556
70,Alyangula,-13.8483,136.4192,86.0,70,0,8.05,AU,1612053830
71,Severnyy-Kospashskiy,59.0925,57.8008,12.99,61,100,1.99,RU,1612053830
72,Isangel,-19.55,169.2667,82.65,70,7,18.39,VU,1612053726
73,Huarmey,-10.0681,-78.1522,71.02,78,31,8.55,PE,1612053666
74,Amudat,1.95,34.95,63.45,61,80,2.91,UG,1612053831
75,Guiratinga,-16.3494,-53.7583,74.61,84,100,3.67,BR,1612053831
76,Tiksi,71.6872,128.8694,-27.38,86,100,5.08,RU,1612053831
77,Yishui,35.7847,118.6281,40.1,69,0,5.75,CN,1612053831
78,Port Alfred,-33.5906,26.891,62.01,92,0,1.01,ZA,1612053831
79,Bambous Virieux,-20.3428,57.7575,78.8,83,40,8.05,MU,1612053831
80,Yumen,40.2833,97.2,21.65,73,0,22.82,CN,1612053832
81,Lebu,-37.6167,-73.65,56.5,85,1,12.01,CL,1612053832
82,Nelson Bay,-32.7167,152.15,80.6,74,75,13.8,AU,1612053832
83,Islāmnagar,28.3333,78.7167,45.52,54,0,4.81,IN,1612053832
84,Lompoc,34.6391,-120.4579,55.99,67,1,12.66,US,1612053832
85,Nadvoitsy,63.8667,34.3167,16.68,98,100,4.14,RU,1612053832
86,Kieta,-6.2167,155.6333,84.18,71,100,15.97,PG,1612053595
87,Sarwār,26.0667,75.0,45.68,54,0,1.3,IN,1612053832
88,Rabo de Peixe,37.8,-25.5833,62.6,88,75,16.11,PT,1612053832
89,Mar del Plata,-38.0023,-57.5575,62.01,63,75,18.41,AR,1612053551
90,Busselton,-33.65,115.3333,77.0,56,0,8.48,AU,1612053833
91,Souillac,-20.5167,57.5167,78.8,83,40,8.05,MU,1612053833
92,Concepción,-36.827,-73.0498,62.6,82,0,3.44,CL,1612053833
93,Hamilton,39.1834,-84.5333,32.0,93,90,10.36,US,1612053759
94,Cabedelo,-6.9811,-34.8339,78.8,83,0,5.75,BR,1612053546
95,Kenitra,34.261,-6.5802,57.2,100,75,4.61,MA,1612053625
96,Longyearbyen,78.2186,15.6401,-4.0,65,20,19.57,SJ,1612053834
97,La Rioja,42.25,-2.5,39.0,84,70,5.99,ES,1612053834
98,Båtsfjord,70.6345,29.7185,23.13,95,100,16.82,NO,1612053834
99,Ilulissat,69.2167,-51.1,6.8,61,90,8.05,GL,1612053834
100,Barrow,71.2906,-156.7887,-11.2,70,90,6.91,US,1612053686
101,Kamenka,51.3223,42.7678,35.01,93,100,4.0,RU,1612053614
102,Castaños,26.7833,-101.4167,80.6,32,20,6.91,MX,1612053731
103,Nemuro,43.3236,145.575,15.8,67,20,3.44,JP,1612053834
104,Dingle,10.9995,122.6711,78.03,80,87,16.17,PH,1612053592
105,Camaná,-16.6228,-72.7111,69.1,77,54,4.41,PE,1612053789
106,Port Elizabeth,-33.918,25.5701,62.6,94,0,6.91,ZA,1612053835
107,Namatanai,-3.6667,152.4333,84.52,67,100,13.22,PG,1612053835
108,Airai,-8.9266,125.4092,62.94,100,100,5.57,TL,1612053545
109,Bluff,-46.6,168.3333,58.21,68,98,7.4,NZ,1612053713
110,Vaini,-21.2,-175.2,86.0,79,75,13.8,TO,1612053836
111,Kapaa,22.0752,-159.319,78.8,65,75,14.97,US,1612053561
112,Eyl,7.9803,49.8164,70.72,83,47,10.56,SO,1612053836
113,Guarujá,-23.9931,-46.2564,78.01,65,0,8.05,BR,1612053601
114,Douentza,14.9951,-2.9517,62.19,27,0,3.69,ML,1612053836
115,Bethel,41.3712,-73.414,21.0,62,1,4.61,US,1612053672
116,Narsaq,60.9167,-46.05,39.2,28,75,33.38,GL,1612053545
117,Beringovskiy,63.05,179.3167,7.0,94,100,29.08,RU,1612053623
118,Kirovo-Chepetsk,58.5539,50.0399,17.46,97,100,7.45,RU,1612053837
119,Boguchany,58.3814,97.4531,-42.43,76,20,1.79,RU,1612053837
120,Pimentel,-6.8367,-79.9342,75.2,64,0,13.8,PE,1612053837
121,Guider,9.9342,13.9486,72.12,22,0,7.31,CM,1612053838
122,Naze,28.3667,129.4833,60.8,55,40,9.22,JP,1612053749
123,Bilibino,68.0546,166.4372,-26.52,79,0,5.53,RU,1612053838
124,Alofi,-19.0595,-169.9187,82.4,74,100,12.66,NU,1612053838
125,Touros,-5.1989,-35.4608,78.8,83,20,4.61,BR,1612053838
126,Hastings,50.8552,0.5729,39.0,81,81,10.0,GB,1612053838
127,Ponta Delgada,37.7333,-25.6667,62.6,88,75,16.11,PT,1612053839
128,Leeton,-34.5667,146.4,77.0,41,0,9.22,AU,1612053839
129,Vestmanna,62.1564,-7.1664,32.0,74,75,23.02,FO,1612053778
130,Hermanus,-34.4187,19.2345,66.99,84,0,9.35,ZA,1612053839
131,Khovu-Aksy,51.1333,93.6,-3.89,89,67,1.25,RU,1612053839
132,Chimbote,-9.0853,-78.5783,70.57,77,96,7.38,PE,1612053640
133,San Cristobal,7.7669,-72.225,65.71,72,84,1.39,VE,1612053839
134,Gijón,43.5357,-5.6615,54.0,88,100,5.99,ES,1612053549
135,Saint Paul Harbor,57.79,-152.4072,33.8,55,1,23.02,US,1612053840
136,Tessalit,20.1986,1.0114,61.95,24,0,11.3,ML,1612053789
137,Gouré,13.9835,10.2704,70.0,17,24,10.0,NE,1612053840
138,Leer,53.2316,7.461,24.01,85,32,1.14,DE,1612053840
139,Alice Springs,-23.7,133.8833,87.8,22,57,16.11,AU,1612053792
140,Esperance,-33.8667,121.9,68.0,64,0,13.8,AU,1612053840
141,Scarborough,54.2797,-0.4044,37.99,75,64,3.0,GB,1612053781
142,Iberia,29.9502,-91.7507,66.2,82,90,9.22,US,1612053841
143,Qaanaaq,77.484,-69.3632,-5.67,80,100,2.84,GL,1612053553
144,Saint George,37.1041,-113.5841,50.0,50,1,2.26,US,1612053841
145,Kopavogur,64.1123,-21.913,21.2,63,0,11.5,IS,1612053808
146,Tynda,55.1667,124.7167,-34.35,81,93,0.87,RU,1612053841
147,Åmot,59.5714,7.9877,12.02,89,0,7.2,NO,1612053841
148,Labytnangi,66.6572,66.4183,-17.48,87,100,5.19,RU,1612053841
149,Pingliang,35.5392,106.6861,31.05,71,49,1.05,CN,1612053841
150,Bredasdorp,-34.5322,20.0403,66.99,84,0,6.22,ZA,1612053577
151,Skibbereen,51.55,-9.2667,41.0,87,75,12.66,IE,1612053842
152,Iracoubo,5.4802,-53.2011,78.13,86,100,15.61,GF,1612053842
153,Raton,36.9034,-104.4391,46.4,25,75,4.61,US,1612053842
154,Fort Nelson,58.8053,-122.7002,-5.8,65,75,1.95,CA,1612053788
155,Ayna,-12.65,-73.9167,57.88,80,100,0.49,PE,1612053842
156,Qasigiannguit,68.8193,-51.1922,6.8,61,90,8.05,GL,1612053842
157,Olinda,-8.0089,-34.8553,78.8,69,40,9.22,BR,1612053842
158,Obihiro,42.9172,143.2044,23.0,42,20,6.91,JP,1612053843
159,Vila Franca do Campo,37.7167,-25.4333,62.6,88,75,16.11,PT,1612053843
160,Olafsvik,64.8945,-23.7142,23.04,89,30,16.82,IS,1612053843
161,Hambantota,6.1241,81.1185,75.2,100,20,9.22,LK,1612053843
162,Puerto Escondido,15.85,-97.0667,82.4,74,40,8.05,MX,1612053843
163,Moerai,-22.4333,-151.3333,80.8,68,38,11.3,PF,1612053843
164,Tateyama,34.9833,139.8667,52.0,62,20,5.75,JP,1612053784
165,Khatanga,71.9667,102.5,-47.02,78,40,0.72,RU,1612053843
166,Sakaiminato,35.55,133.2333,44.6,70,75,3.44,JP,1612053844
167,Bradford,53.7939,-1.7521,32.0,46,82,5.48,GB,1612053706
168,Japura,-0.3167,102.35,75.25,90,100,2.15,ID,1612053844
169,Lagoa,39.05,-27.9833,61.9,94,100,25.64,PT,1612053704
170,Zhob,31.3411,69.4481,43.88,51,0,2.28,PK,1612053844
171,Nikolskoye,59.7035,30.7861,25.0,93,75,4.47,RU,1612053551
172,Aswān,24.0934,32.907,53.31,42,0,8.46,EG,1612053844
173,Aksarka,66.5606,67.7975,-16.6,88,100,10.09,RU,1612053844
174,Sept-Îles,50.2001,-66.3821,19.4,63,51,6.91,CA,1612053844
175,Broken Hill,-31.95,141.4333,77.0,38,48,13.8,AU,1612053844
176,Dikson,73.5069,80.5464,-34.4,80,0,7.31,RU,1612053845
177,‘Ewa Beach,21.3156,-158.0072,80.6,54,75,6.91,US,1612053845
178,La Ronge,55.1001,-105.2842,12.2,85,6,1.14,CA,1612053845
179,Manakara,-22.1333,48.0167,75.58,89,0,4.18,MG,1612053845
180,Quatre Cocos,-20.2078,57.7625,78.8,83,40,8.05,MU,1612053845
181,Lázaro Cárdenas,17.9583,-102.2,77.59,78,0,3.6,MX,1612053845
182,Aksu,41.1231,80.2644,15.84,86,4,3.04,CN,1612053725
183,Cidreira,-30.1811,-50.2056,75.78,88,98,9.33,BR,1612053846
184,Mastic Beach,40.7668,-72.8521,26.01,53,1,11.45,US,1612053846
185,Hithadhoo,-0.6,73.0833,81.68,79,24,14.23,MV,1612053846
186,Aljezur,37.3191,-8.8033,55.0,100,100,1.01,PT,1612053846
187,Dargaville,-35.9333,173.8833,72.93,43,0,8.75,NZ,1612053846
188,Panzhihua,26.5851,101.7128,43.0,71,0,2.59,CN,1612053846
189,Russell,32.3502,-85.1999,53.6,62,40,5.75,US,1612053846
190,Auki,-8.7676,160.7034,82.42,82,100,12.75,SB,1612053846
191,Kaitangata,-46.2817,169.8464,61.0,81,100,15.01,NZ,1612053846
192,São João da Barra,-21.6403,-41.0511,77.86,78,0,21.54,BR,1612053847
193,Provideniya,64.3833,-173.3,-10.1,83,98,13.87,RU,1612053847
194,Ketchikan,55.3422,-131.6461,37.4,87,40,5.82,US,1612053710
195,Sfântu Gheorghe,45.8667,25.7833,37.0,89,50,1.01,RO,1612053847
196,Afogados da Ingazeira,-7.7508,-37.6392,73.02,75,100,7.2,BR,1612053847
197,Amapá,1.0,-52.0,72.21,98,56,1.99,BR,1612053672
198,Leningradskiy,69.3833,178.4167,-26.9,82,0,3.91,RU,1612053847
199,Altus,34.6381,-99.334,59.0,33,1,16.11,US,1612053847
200,Honningsvåg,70.9821,25.9704,26.6,80,0,8.05,NO,1612053848
201,Karanpura,29.1018,75.092,50.38,42,0,3.24,IN,1612053848
202,Riyadh,24.6877,46.7219,51.8,46,0,4.61,SA,1612053848
203,Banda Aceh,5.5577,95.3222,77.49,78,10,12.46,ID,1612053848
204,Nome,64.5011,-165.4064,-7.6,71,1,6.91,US,1612053848
205,Madison,34.7334,-86.5667,52.0,40,90,14.97,US,1612053793
206,Río Gallegos,-51.6226,-69.2181,62.6,34,0,16.11,AR,1612053688
207,Tres Arroyos,-38.3739,-60.2798,52.41,77,0,6.89,AR,1612053848
208,Arkhara,49.4212,130.0842,-24.45,85,20,3.44,RU,1612053848
209,Police,53.5521,14.5718,27.0,93,3,6.42,PL,1612053848
210,Hohoe,7.1518,0.4736,77.97,80,100,3.94,GH,1612053849
211,Balkhash,46.844,74.9804,15.42,89,100,10.94,KZ,1612053849
212,Talnakh,69.4865,88.3972,-31.2,71,0,6.93,RU,1612053849
213,Aklavik,68.2191,-135.0107,-16.6,76,90,5.75,CA,1612053849
214,Raja,8.4596,25.678,65.53,25,27,4.7,SS,1612053849
215,Saint-Louis,16.3333,-15.0,77.0,33,0,2.3,SN,1612053849
216,Murdochville,48.9583,-65.5006,15.8,62,97,17.27,CA,1612053849
217,Mahébourg,-20.4081,57.7,78.8,83,40,8.05,MU,1612053576
218,Oranjemund,-28.55,16.4333,60.39,91,2,7.47,NA,1612053849
219,Baker City,44.7749,-117.8344,42.8,56,1,14.97,US,1612053850
220,Gondanglegi,-7.7479,112.0132,79.03,81,59,2.73,ID,1612053850
221,Novoagansk,61.9449,76.6625,-18.27,85,100,14.7,RU,1612053850
222,Dakar,14.6937,-17.4441,68.0,73,100,9.22,SN,1612053611
223,Tuktoyaktuk,69.4541,-133.0374,-34.6,67,40,3.44,CA,1612053850
224,Vysokogornyy,50.1167,139.15,-11.11,85,100,7.25,RU,1612053850
225,Puerto Ayora,-0.7393,-90.3518,78.01,90,51,7.0,EC,1612053850
226,Zhangye,38.9342,100.4517,18.97,70,0,3.67,CN,1612053850
227,Kyren,51.6828,102.1408,-12.96,82,100,1.72,RU,1612053850
228,Kulhudhuffushi,6.6221,73.07,81.66,65,23,5.86,MV,1612053851
229,Magaria,12.9983,8.9099,65.26,25,0,10.18,NE,1612053851
230,Forsytheganj,52.6333,29.7333,23.07,98,100,7.4,BY,1612053851
231,Ous,60.9058,61.5186,-7.67,91,100,3.6,RU,1612053851
232,Paranaguá,-25.52,-48.5092,69.8,88,0,5.75,BR,1612053851
233,Fremont,37.5483,-121.9886,59.0,58,90,9.22,US,1612053760
234,Fort Payne,34.4442,-85.7197,46.4,61,1,8.05,US,1612053851
235,Hokitika,-42.7167,170.9667,62.62,64,0,9.6,NZ,1612053851
236,Severo-Kuril'sk,50.6789,156.125,25.18,95,100,28.63,RU,1612053851
237,Daram,11.6341,124.7947,80.15,73,100,12.08,PH,1612053852
238,Kalianget,-7.05,113.9333,81.48,79,50,12.95,ID,1612053852
239,Chokurdakh,70.6333,147.9167,-29.6,85,0,8.3,RU,1612053591
240,Taltal,-25.4,-70.4833,66.72,73,9,5.53,CL,1612053852
241,Balaipungut,1.05,101.2833,73.4,94,20,1.81,ID,1612053852
242,Sibolga,1.7427,98.7792,77.27,73,54,3.56,ID,1612053852
243,Maceió,-9.6658,-35.7353,75.2,94,40,3.44,BR,1612053852
244,Deputatsky,69.3,139.9,-25.11,88,100,1.7,RU,1612053852
245,Llandrindod Wells,52.2416,-3.3787,33.01,98,79,14.99,GB,1612053853
246,São Filipe,14.8961,-24.4956,74.12,61,100,9.13,CV,1612053853
247,Bengkulu,-3.8004,102.2655,73.81,92,100,9.82,ID,1612053735
248,Bagdarin,54.4333,113.6,-28.5,76,0,2.42,RU,1612053853
249,Verkhnyaya Inta,65.9811,60.3094,-6.02,86,100,10.54,RU,1612053853
250,Berea,41.3662,-81.8543,30.2,55,90,10.36,US,1612053793
251,Makakilo City,21.3469,-158.0858,80.6,54,75,6.91,US,1612053594
252,Morro Bay,35.3658,-120.8499,55.99,67,1,1.68,US,1612053853
253,Novyy Oskol,50.7631,37.8691,35.31,97,100,21.79,RU,1612053853
254,Saint Anthony,45.0205,-93.218,32.0,74,90,9.22,US,1612053853
255,Ixtapa,20.7,-105.2,73.4,78,1,11.5,MX,1612053853
256,Orán,-23.1322,-64.326,82.99,63,64,1.99,AR,1612053854
257,Asău,46.4333,26.4,37.0,80,90,13.8,RO,1612053854
258,Brae,60.3964,-1.353,33.8,93,75,1.14,GB,1612053854
259,Lakatoro,-16.0999,167.4164,85.23,63,92,9.51,VU,1612053854
260,Macas,-2.3167,-78.1167,67.95,79,23,1.77,EC,1612053854
261,Katsuura,35.1333,140.3,52.0,45,20,6.91,JP,1612053854
262,Grand Gaube,-20.0064,57.6608,75.99,86,4,1.99,MU,1612053854
263,Puri,19.8,85.85,64.4,82,40,3.44,IN,1612053609
264,Shache,38.4167,77.2406,19.18,90,57,0.4,CN,1612053854
265,Lagos,6.5833,3.75,78.78,88,5,3.87,NG,1612053729
266,Burgos,42.3394,-3.7079,39.2,87,90,16.11,ES,1612053855
267,Oeiras,-7.0253,-42.1311,72.23,93,100,3.31,BR,1612053855
268,Bafra,41.5678,35.9069,50.0,57,75,4.61,TR,1612053855
269,Saiki,32.95,131.9,50.0,53,20,4.61,JP,1612053855
270,Batemans Bay,-35.7167,150.1833,66.0,79,100,4.0,AU,1612053855
271,Campos Novos,-27.4017,-51.225,62.98,99,3,3.71,BR,1612053855
272,Iqaluit,63.7506,-68.5145,-9.0,77,1,19.57,CA,1612053855
273,Yar-Sale,66.8333,70.8333,-17.63,86,100,17.9,RU,1612053855
274,San Patricio,28.017,-97.5169,73.4,78,20,18.41,US,1612053855
275,Brzeg Dolny,51.273,16.7082,15.8,92,96,2.3,PL,1612053856
276,Byron Bay,-28.65,153.6167,80.6,69,75,10.36,AU,1612053856
277,Selma,36.5708,-119.6121,60.8,47,1,1.61,US,1612053856
278,Matara,5.9485,80.5353,75.18,87,4,4.14,LK,1612053856
279,Port Lincoln,-34.7333,135.8667,66.67,63,7,14.32,AU,1612053856
280,Acapulco de Juárez,16.8634,-99.8901,84.2,74,40,4.61,MX,1612053587
281,Calvinia,-31.4707,19.776,55.94,71,0,3.62,ZA,1612053658
282,Hoquiam,46.9809,-123.8893,46.99,76,75,12.66,US,1612053856
283,Pangnirtung,66.1451,-65.7125,-8.93,74,23,2.57,CA,1612053716
284,Port Hardy,50.6996,-127.4199,46.4,81,90,23.02,CA,1612053739
285,Savigliano,44.644,7.6559,42.01,93,90,4.61,IT,1612053857
286,Saint-Augustin,51.226,-58.6502,28.81,92,100,16.96,CA,1612053857
287,Grindavik,63.8424,-22.4338,21.2,73,0,6.91,IS,1612053857
288,Bayjī,34.9311,43.487,48.33,58,100,6.42,IQ,1612053857
289,Leshukonskoye,64.8989,45.7622,17.65,97,100,5.61,RU,1612053857
290,Vondrozo,-22.8167,47.2833,68.49,100,56,0.18,MG,1612053857
291,Yulara,-25.2406,130.9889,87.8,23,76,18.41,AU,1612053857
292,Nānākuli,21.3906,-158.1547,80.6,54,75,6.91,US,1612053857
293,Pevek,69.7008,170.3133,-33.25,84,9,2.08,RU,1612053857
294,Atherton,53.5237,-2.4935,36.0,70,100,3.0,GB,1612053857
295,Umm Kaddadah,13.6017,26.6876,61.09,29,0,13.18,SD,1612053858
296,Kruisfontein,-34.0033,24.7314,60.01,90,0,3.51,ZA,1612053562
297,Labuhan,-6.8844,112.2051,80.02,83,100,6.53,ID,1612053858
298,Valparaíso,-33.0393,-71.6273,66.0,100,90,4.61,CL,1612053858
299,Tutóia,-2.7619,-42.2744,80.19,82,100,12.19,BR,1612053858
300,Wundanyi,-3.4019,38.364,60.01,100,99,4.72,KE,1612053858
301,Tibiri,13.5627,7.0485,64.54,25,37,9.86,NE,1612053858
302,Manggar,-2.8833,108.2667,81.39,78,100,10.2,ID,1612053858
303,Umluj,25.0213,37.2685,64.29,56,0,11.52,SA,1612053859
304,Galle,6.0367,80.217,77.04,86,98,4.21,LK,1612053859
305,Krasnosel'kup,65.7,82.4667,-25.92,83,100,12.82,RU,1612053859
306,Salalah,17.0151,54.0924,66.2,68,0,3.44,OM,1612053859
307,Kiryat Gat,31.61,34.7642,55.0,58,0,1.01,IL,1612053669
308,Lodeynoye Pole,60.726,33.5531,20.52,98,99,3.78,RU,1612053859
309,Wagar,16.1525,36.2032,60.82,90,0,8.16,SD,1612053859
310,Nishihara,26.1842,127.7558,64.4,48,20,9.22,JP,1612053859
311,Antalaha,-14.9003,50.2788,75.49,88,0,4.54,MG,1612053859
312,Caravelas,-17.7125,-39.2481,75.36,85,0,5.08,BR,1612053859
313,Butterworth,5.3991,100.3638,78.8,83,20,6.13,MY,1612053860
314,Majene,-3.5403,118.9707,82.6,60,100,3.36,ID,1612053723
315,Misratah,32.3754,15.0925,63.99,51,0,12.06,LY,1612053860
316,Khorixas,-20.3667,14.9667,68.05,57,96,5.08,NA,1612053860
317,George,-33.963,22.4617,64.4,82,0,2.3,ZA,1612053860
318,São Félix do Xingu,-6.6447,-51.995,72.82,95,100,2.08,BR,1612053860
319,Gatesville,31.4352,-97.7439,73.4,19,1,5.75,US,1612053860
320,Rio Grande,-32.035,-52.0986,75.81,91,86,13.24,BR,1612053861
321,Yaan,7.3833,8.5667,75.74,19,6,6.85,NG,1612053861
322,Portland,45.5234,-122.6762,48.99,81,90,13.8,US,1612053022
323,Kindia,10.0569,-12.8658,65.08,78,0,1.81,GN,1612053861
324,Valley Station,38.1112,-85.8702,37.4,87,90,12.66,US,1612053861
325,Spencer,43.1414,-95.1444,28.4,93,90,17.27,US,1612053861
326,Davidson,36.1501,-86.7833,51.8,50,90,11.5,US,1612053861
327,Ukhta,63.5671,53.6835,11.44,95,100,9.82,RU,1612053861
328,Çeşme,38.3228,26.3064,42.8,93,0,2.3,TR,1612053723
329,Venado Tuerto,-33.7456,-61.9688,64.0,93,100,7.0,AR,1612053862
330,Salinas,36.6777,-121.6555,57.2,67,90,11.5,US,1612053724
331,Kathmandu,27.7167,85.3167,37.4,93,20,3.44,NP,1612053856
332,Zhigansk,66.7697,123.3711,-48.64,74,59,3.69,RU,1612053862
333,Mount Gambier,-37.8333,140.7667,64.4,59,75,8.05,AU,1612053862
334,La Macarena,2.1837,-73.7849,76.86,61,5,2.77,CO,1612053862
335,Bétaré Oya,5.6,14.0833,64.76,35,0,1.9,CM,1612053862
336,Saldanha,-33.0117,17.9442,63.68,93,0,1.54,ZA,1612053862
337,Ahipara,-35.1667,173.1667,72.28,49,0,5.99,NZ,1612053863
338,Laguna,38.421,-121.4238,59.0,51,1,4.61,US,1612053863
339,Mali Zvornik,44.3734,19.1065,41.0,87,40,2.3,RS,1612053863
340,Hasaki,35.7333,140.8333,42.8,42,20,11.5,JP,1612053863
341,Williamsburg,37.2707,-76.7075,35.6,64,1,3.85,US,1612053863
342,Staraya Russa,57.9944,31.3608,20.03,97,80,5.3,RU,1612053863
343,Kirksville,40.1948,-92.5833,35.01,100,90,11.5,US,1612053863
344,Veshenskaya,49.6303,41.7334,33.03,94,82,12.97,RU,1612053863
345,Matagami,49.7502,-77.6328,-2.2,84,90,5.75,CA,1612053863
346,Wanaka,-44.7,169.15,70.5,36,17,5.99,NZ,1612053863
347,Felanitx,39.4696,3.1483,57.2,58,20,10.36,ES,1612053864
348,Texarkana,33.4251,-94.0477,62.6,82,40,10.36,US,1612053864
349,Samfya,-11.3649,29.5565,66.58,92,100,1.36,ZM,1612053864
350,Pyaozerskiy,65.8333,31.1667,10.33,95,100,5.39,RU,1612053864
351,Constitución,-35.3333,-72.4167,59.59,93,34,8.46,CL,1612053864
352,Necochea,-38.5473,-58.7368,59.0,66,26,5.01,AR,1612053864
353,Hay River,60.8156,-115.7999,-11.2,77,5,3.44,CA,1612053864
354,Kyakhta,50.3508,106.4494,-11.13,84,100,6.35,RU,1612053865
355,Lake Cowichan,48.825,-124.0546,44.6,87,90,6.91,CA,1612053573
356,Buraidah,26.326,43.975,50.0,66,0,5.75,SA,1612053865
357,Svetlaya,46.5389,138.3297,4.08,81,26,9.06,RU,1612053668
358,Meulaboh,4.1363,96.1285,75.97,83,58,4.41,ID,1612053604
359,Tha Chang,9.2642,99.1922,78.01,100,20,2.3,TH,1612053865
360,Itarema,-2.9248,-39.9167,79.11,82,100,10.33,BR,1612053865
361,Bosaso,11.2842,49.1816,71.56,73,50,5.21,SO,1612053591
362,Montgomery,30.6667,73.1,48.51,43,0,4.94,PK,1612053865
363,Khanbari,27.3747,87.2039,44.87,53,0,2.44,NP,1612053865
364,Luau,-10.7073,22.2247,64.65,97,100,2.62,AO,1612053865
365,Mitú,1.1983,-70.1733,74.7,91,69,1.5,CO,1612053866
366,Ostrovnoy,68.0531,39.5131,14.54,95,100,7.47,RU,1612053866
367,Noyabrsk,63.1994,75.4507,-19.52,85,100,20.8,RU,1612053866
368,Nara,34.6851,135.8049,48.0,65,40,1.14,JP,1612053866
369,Iquitos,-3.7481,-73.2472,77.0,83,75,4.61,PE,1612053866
370,Tazovsky,67.4667,78.7,-25.6,84,100,15.73,RU,1612053751
371,Homer,59.6425,-151.5483,30.2,69,1,6.4,US,1612053866
372,Arroyo de la Encomienda,41.6096,-4.7969,46.0,81,90,19.57,ES,1612053866
373,Sangar,63.9242,127.4739,-48.5,76,85,3.78,RU,1612053652
374,Aitape,-3.1374,142.3475,84.87,68,94,9.57,PG,1612053867
375,Muroto-misakicho,33.2833,134.15,41.0,75,40,8.05,JP,1612053867
376,Santiago de Chuco,-8.15,-78.1833,52.63,82,100,1.57,PE,1612053867
377,Gualeguaychú,-33.0094,-58.5172,64.0,82,97,7.0,AR,1612053867
378,Kibre Mengist,5.8833,38.9833,49.41,48,18,3.71,ET,1612053867
379,Yangjiang,21.85,111.9667,63.09,74,0,6.64,CN,1612053694
380,Taoudenni,22.6783,-3.9836,66.4,25,5,7.52,ML,1612053867
381,Husavik,66.0449,-17.3389,14.0,85,90,4.61,IS,1612053867
382,Fortuna,40.5982,-124.1573,53.01,76,90,23.02,US,1612053868
383,Douala,4.0483,9.7043,80.6,100,40,2.3,CM,1612053868
384,Srednekolymsk,67.45,153.6833,-32.04,84,100,3.31,RU,1612053720
385,Veinticinco de Mayo,-35.4323,-60.1727,59.0,63,100,8.01,AR,1612053868
386,Cabo San Lucas,22.8909,-109.9124,73.4,77,40,4.61,MX,1612053594
387,Lorica,9.2365,-75.8135,78.22,75,0,7.72,CO,1612053868
388,Amahai,-3.3333,128.9167,85.19,64,99,2.51,ID,1612053868
389,Jericho,31.8667,35.45,55.4,53,0,17.27,PS,1612053868
390,Dondo,-19.6094,34.7431,74.5,94,77,2.21,MZ,1612053868
391,Gōtsuchō,35.0,132.2167,41.0,81,20,3.44,JP,1612053868
392,Cherskiy,68.75,161.3,-35.3,83,0,0.96,RU,1612053635
393,Goderich,43.7501,-81.7165,24.8,74,100,2.3,CA,1612053663
394,Altamont,42.2068,-121.7372,42.8,56,90,18.41,US,1612053716
395,Kahuta,33.5913,73.3868,46.4,87,0,6.53,PK,1612053869
396,Gwanda,-20.9333,29.0,69.13,92,87,8.95,ZW,1612053869
397,Orocué,4.7912,-71.3354,83.26,50,6,6.6,CO,1612053869
398,Kavaratti,10.5669,72.642,80.78,72,4,9.06,IN,1612053869
399,Ozinki,51.1786,49.6769,18.73,95,45,10.58,RU,1612053869
400,Gweru,-19.45,29.8167,64.92,94,100,5.44,ZW,1612053869
401,Los Llanos de Aridane,28.6585,-17.9182,64.4,77,90,12.66,ES,1612053641
402,Gamba,-2.65,10.0,76.89,89,100,5.88,GA,1612053870
403,Vardø,70.3705,31.1107,25.18,95,100,19.01,NO,1612053870
404,Tudela,42.0617,-1.6045,44.6,87,90,4.61,ES,1612053870
405,Revda,56.801,59.9303,15.8,86,90,4.47,RU,1612053600
406,Bom Jesus,-9.0744,-44.3586,74.37,70,4,2.93,BR,1612053594
407,Diapaga,12.0708,1.7889,71.51,20,19,7.05,BF,1612053660
408,Oro Valley,32.3909,-110.9665,59.0,41,0,4.0,US,1612053870
409,Nhulunbuy,-12.2333,136.7667,86.0,74,94,12.66,AU,1612053870
410,Marzuq,14.4,46.4667,58.1,58,0,2.71,YE,1612053870
411,Canoinhas,-26.1772,-50.39,64.56,96,100,2.17,BR,1612053870
412,Bandarbeyla,9.4942,50.8122,73.8,72,100,15.79,SO,1612053871
413,Cayenne,4.9333,-52.3333,80.6,89,75,8.05,GF,1612053768
414,Richards Bay,-28.783,32.0377,73.69,95,88,4.23,ZA,1612053871
415,Buchanan,5.8808,-10.0467,75.2,94,40,5.84,LR,1612053871
416,Gull Lake,50.1001,-108.4847,3.2,85,1,6.91,CA,1612053871
417,Rødekro,55.0702,9.3164,32.0,93,75,11.5,DK,1612053871
418,Columbus,39.9612,-82.9988,34.0,40,90,11.5,US,1612053631
419,Antofagasta,-23.65,-70.4,68.0,77,20,13.8,CL,1612053871
420,Eureka,40.8021,-124.1637,53.6,87,90,3.44,US,1612053603
421,Maragogi,-9.0122,-35.2225,78.04,82,100,8.3,BR,1612053836
422,Pasni,25.2631,63.471,65.21,66,0,7.16,PK,1612053872
423,Tamasane,-22.4184,27.4013,70.99,85,29,7.74,BW,1612053872
424,Orlik,52.5178,99.825,-17.18,80,98,2.73,RU,1612053872
425,Stornoway,58.2093,-6.3865,37.99,60,40,11.5,GB,1612053633
426,Barra Patuca,15.8,-84.2833,75.38,85,49,8.46,HN,1612053872
427,Boca do Acre,-8.7522,-67.3978,74.68,98,100,4.25,BR,1612053788
428,Pochutla,15.7432,-96.4661,82.4,65,20,11.5,MX,1612053872
429,Borogontsy,62.6683,131.1683,-42.34,80,98,3.15,RU,1612053604
430,Alta Floresta,-9.8756,-56.0861,72.64,96,60,2.01,BR,1612053873
431,Smithers,54.7804,-127.1743,21.2,68,90,2.3,CA,1612053873
432,Tura,25.5198,90.2201,50.05,49,0,3.11,IN,1612053575
433,Ginir,7.1333,40.7,54.05,40,12,3.8,ET,1612053873
434,Suez,29.9737,32.5263,54.09,50,0,5.82,EG,1612053873
435,Galesong,-5.3166,119.3661,77.0,94,20,4.61,ID,1612053873
436,Wattegama,6.7989,81.4808,75.2,100,20,9.22,LK,1612053873
437,Yomou,7.5603,-9.2653,69.71,95,0,1.23,GN,1612053873
438,Khani,41.9563,42.9566,41.0,75,0,8.05,GE,1612053873
439,Hong Kong,22.2855,114.1577,64.0,63,0,1.01,HK,1612053648
440,Presidencia Roque Sáenz Peña,-26.7852,-60.4388,78.01,70,100,2.1,AR,1612053874
441,Tigil',57.8,158.6667,5.67,94,100,14.25,RU,1612053874
442,Shīeli,44.1667,66.75,35.19,78,53,0.96,KZ,1612053669
443,Les Cayes,18.2,-73.75,73.15,77,62,6.08,HT,1612053623
444,Lumberton,34.6182,-79.0086,44.6,42,90,5.75,US,1612053754
445,Igarapava,-20.0383,-47.7469,82.4,47,0,4.61,BR,1612053874
446,Poconé,-16.2567,-56.6228,79.38,71,67,5.19,BR,1612053874
447,Ulaanbaatar,47.9077,106.8832,3.2,72,75,15.66,MN,1612053762
448,Rivadavia,-33.1905,-68.4608,66.2,68,40,6.91,AR,1612053875
449,Rāpar,23.5667,70.6333,55.99,39,0,3.18,IN,1612053875
450,Port Macquarie,-31.4333,152.9167,84.99,69,55,9.73,AU,1612053875
451,Nouadhibou,20.931,-17.0347,68.0,64,0,18.41,MR,1612053875
452,Sitka,57.0531,-135.33,41.0,52,75,4.61,US,1612053875
453,Te Anau,-45.4167,167.7167,65.53,47,29,6.89,NZ,1612053875
454,Coquimbo,-29.9533,-71.3436,66.2,82,90,6.91,CL,1612053875
455,Ishigaki,24.3448,124.1572,69.8,52,75,12.66,JP,1612053875
456,Bahir Dar,11.5936,37.3908,63.27,49,56,2.91,ET,1612053875
457,Port Keats,-14.25,129.55,80.04,86,100,9.26,AU,1612053777
458,Bambanglipuro,-7.95,110.2833,80.02,77,100,3.38,ID,1612053876
459,Cururupu,-1.8283,-44.8683,76.89,88,100,3.15,BR,1612053832
460,Ilhabela,-23.7781,-45.3581,77.7,81,84,2.1,BR,1612053876
461,Coahuayana Viejo,18.7333,-103.6833,80.6,61,1,6.91,MX,1612053876
462,Biloela,-24.4167,150.5,87.39,35,54,11.81,AU,1612053876
463,Ōhara,35.25,140.3833,42.8,45,20,6.91,JP,1612053740
464,Beloha,-25.1667,45.05,74.37,82,0,4.68,MG,1612053876
465,Saint-François,46.4154,3.9054,42.8,87,90,3.44,FR,1612053876
466,Vilhena,-12.7406,-60.1458,70.41,98,100,3.51,BR,1612053876
467,Wanning,18.8003,110.3967,70.21,80,54,11.39,CN,1612053877
468,Departamento de Maldonado,-34.6667,-54.9167,68.0,73,75,16.11,UY,1612053877
469,Lātehār,23.75,84.5,43.86,55,0,2.77,IN,1612053877
470,Mattru,7.6244,-11.8332,75.58,87,42,1.16,SL,1612053877
471,Chiredzi,-21.05,31.6667,72.1,93,99,5.46,ZW,1612053877
472,Soyo,-6.1349,12.3689,79.68,86,100,8.19,AO,1612053877
473,Gmina Świecie,53.4095,18.4474,26.01,80,75,6.91,PL,1612053877
474,Malbork,54.0359,19.0266,26.6,80,75,12.66,PL,1612053877
475,Fallon,39.4735,-118.7774,44.6,61,40,5.75,US,1612053877
476,Darnah,32.767,22.6367,60.12,64,0,8.68,LY,1612053877
477,Kumul,42.8,93.45,20.75,85,0,5.01,CN,1612053578
478,Vao,-22.6667,167.4833,75.83,79,100,22.26,NC,1612053878
479,Rumford,44.5537,-70.5509,7.0,77,2,1.01,US,1612053878
480,Manadhoo,5.7667,73.3833,81.73,69,86,8.63,MV,1612053878
481,Pāsighāt,28.0667,95.3333,54.09,56,10,2.71,IN,1612053878
482,Khandwa,21.8333,76.3333,52.25,37,0,4.5,IN,1612053878
483,Norman Wells,65.282,-126.8329,-27.4,68,40,3.44,CA,1612053878
484,Viedma,-40.8135,-62.9967,62.01,58,24,10.71,AR,1612053878
485,Kirakira,-10.4544,161.9205,83.91,79,99,14.76,SB,1612053794
486,Dryden,49.7833,-92.7503,23.0,93,90,8.05,CA,1612053879
487,Sūsangerd,31.5608,48.1831,51.24,50,0,4.94,IR,1612053879
488,Lavrentiya,65.5833,-171.0,-16.06,84,0,5.68,RU,1612053879
489,Tra Vinh,9.9347,106.3453,76.71,70,29,7.29,VN,1612053682
490,Suntar,62.1444,117.6319,-35.05,82,100,1.95,RU,1612053879
491,Sinnamary,5.3833,-52.95,77.99,86,100,15.41,GF,1612053610
492,Faya,18.3851,42.4509,55.4,62,0,5.75,SA,1612053879
493,Krabi,8.0726,98.9105,73.4,94,20,5.75,TH,1612053879
494,Poltavka,54.3663,71.7632,11.73,94,100,12.08,RU,1612053879
495,Kurunegala,7.4863,80.3623,75.2,94,0,3.69,LK,1612053879
496,Ola,59.5833,151.2833,-13.29,81,62,16.24,RU,1612053880
497,Lowicz,52.1071,19.9453,24.01,80,75,5.75,PL,1612053880
498,Kupang,-10.1667,123.5833,82.4,83,75,20.71,ID,1612053798
499,Oktyabr'skoye,43.0645,44.7417,37.4,81,12,4.47,RU,1612053880
500,Mehamn,71.0357,27.8492,26.6,80,0,8.05,NO,1612053880
501,Kaeo,-35.1,173.7833,72.0,60,0,5.01,NZ,1612053863
502,Kavieng,-2.5744,150.7967,83.28,73,98,13.98,PG,1612053880
503,Tuatapere,-46.1333,167.6833,66.83,45,100,0.78,NZ,1612053880
504,Colombo,6.9319,79.8478,75.2,94,4,10.8,LK,1612053686
505,Paamiut,61.994,-49.6678,25.29,89,45,14.74,GL,1612053718
506,Greystones,53.1408,-6.0631,39.0,88,76,17.74,IE,1612053881
507,Petropavlovsk-Kamchatskiy,53.0452,158.6483,28.4,50,100,15.66,RU,1612053881
508,Montego Bay,18.4712,-77.9188,77.0,73,20,19.57,JM,1612053881
509,Dharmanagar,24.3667,92.1667,50.63,66,0,0.81,IN,1612053606
510,Arteche,12.2645,125.4048,78.46,81,100,16.13,PH,1612053881
511,Comodoro Rivadavia,-45.8667,-67.5,60.8,51,0,8.05,AR,1612053881
512,Clyde River,70.4692,-68.5914,-9.4,84,90,5.75,CA,1612053882
513,Oshakati,-17.7833,15.6833,69.57,87,100,10.54,NA,1612053882
514,Kermen,42.5,26.25,33.8,100,1,9.22,BG,1612053882
515,Duyun,26.2667,107.5167,45.63,91,100,1.9,CN,1612053882
516,Port Augusta,-32.5,137.7667,69.8,60,100,12.66,AU,1612053882
517,Emerald,-23.5333,148.1667,86.0,48,40,5.75,AU,1612053882
518,Cockburn Town,21.4612,-71.1419,73.4,56,20,11.5,TC,1612053882
519,Lantawan,10.6167,123.9833,80.6,74,90,21.85,PH,1612053882
520,Hargeisa,9.56,44.065,57.34,65,0,9.28,SO,1612053883
521,Brakel,51.7167,9.1833,30.0,90,100,3.51,DE,1612053883
522,Buriti Alegre,-18.14,-49.0403,73.56,73,88,2.46,BR,1612053883
523,Bonavista,48.6499,-53.1147,28.99,93,92,5.75,CA,1612053883
524,Ancud,-41.8697,-73.8203,57.99,62,0,9.22,CL,1612053844
525,Codrington,-38.2667,141.9667,65.07,57,0,8.46,AU,1612053883
526,Jamame,0.0722,42.7506,71.69,89,0,7.81,SO,1612053883
527,Salinópolis,-0.6136,-47.3561,79.11,86,100,10.74,BR,1612053883
528,Sassandra,4.95,-6.0833,77.56,91,5,7.05,CI,1612053883
529,Tugulym,57.0591,64.6425,17.6,86,40,4.47,RU,1612053883
530,Belvidere,42.2639,-88.8443,30.99,94,100,14.0,US,1612053833
531,Ocho Rios,18.4025,-77.1048,77.0,82,51,13.0,JM,1612053637
532,Tegul'det,57.3064,88.1667,-28.82,83,0,4.41,RU,1612053712
533,Abu Samrah,35.3029,37.1841,50.38,65,100,20.49,SY,1612053884
534,Hofn,64.2539,-15.2082,21.67,83,0,18.61,IS,1612053884
535,Piracicaba,-22.7253,-47.6492,81.0,65,20,9.22,BR,1612053884
536,Okhotsk,59.3833,143.3,-9.35,80,0,17.94,RU,1612053821
537,Rocha,-34.4833,-54.3333,65.75,91,100,18.12,UY,1612053744
538,Nueve de Julio,-35.4444,-60.8831,62.01,76,91,1.99,AR,1612053809
539,Morris,40.8334,-74.5329,28.0,50,20,8.05,US,1612053666
540,Geraldton,-28.7667,114.6,95.0,23,0,19.57,AU,1612053884
541,Puerto Cabello,10.4731,-68.0125,76.5,77,10,9.28,VE,1612053885
542,Lata,40.1629,-8.3327,55.99,88,100,1.99,PT,1612053585
543,Huilong,31.8111,121.655,53.01,73,100,3.0,CN,1612053885
544,Tiarei,-17.5333,-149.3333,87.8,58,75,9.22,PF,1612053681
545,Mollendo,-17.0231,-72.0147,69.4,77,93,4.43,PE,1612053885
546,Pisco,-13.7,-76.2167,73.4,68,0,17.27,PE,1612053822
547,Thunder Bay,48.4001,-89.3168,28.4,80,90,13.8,CA,1612053698
548,Puntarenas,9.9763,-84.8384,71.6,68,20,16.11,CR,1612053885
549,Urgut,39.4022,67.2431,53.6,40,75,9.22,UZ,1612053885
550,Temnikov,54.6302,43.2148,24.8,98,100,10.38,RU,1612053885
551,Honiara,-9.4333,159.95,81.57,82,100,8.03,SB,1612053885
552,Chingirlau,51.095,54.0814,20.73,98,97,4.61,KZ,1612053670
553,Port Moresby,-9.4431,147.1797,75.2,94,75,10.36,PG,1612053886
554,Polson,47.6936,-114.1632,37.0,59,8,3.96,US,1612053886
555,Adrar,20.5022,-10.0711,65.71,25,60,7.56,MR,1612053886
556,Luanda,-8.8368,13.2343,78.8,83,75,4.61,AO,1612053740
557,Port Shepstone,-30.7414,30.455,74.91,88,100,2.53,ZA,1612053886
558,Murgab,37.4966,61.9714,48.2,57,75,6.91,TM,1612053886
559,Arinos,-15.9169,-46.1056,73.6,63,26,2.21,BR,1612053886
